{"class":"SKY","device":"dev/ttyS0","xdop":0.61,"ydop":1.01,"vdop":0.73,"tdop":1.15,"hdop":0.87,"gdop":2.32,"pdop":1.13,"satellites":[{"PRN":10,"el":74,"az":345,"ss":15,"used":true},{"PRN":20,"el":68,"az":103,"ss":16,"used":true},{"PRN":
32,"el":53,"az":267,"ss":25,"used":true},{"PRN":24,"el":38,"az":55,"ss":19,"used":true},{"PRN":14,"el":33,"az":253,"ss":14,"used":true},{"PRN":21,"el":29,"az":179,"ss":15,"used":true},{"PRN":15,"el":13,"az":67,"ss":16,"used":true},{"PRN"
:18,"el":12,"az":321,"ss":27,"used":true},{"PRN":12,"el":9,"az":101,"ss":15,"used":true},{"PRN":8,"el":8,"az":289,"ss":13,"used":true},{"PRN":27,"el":8,"az":259,"ss":0,"used":false},{"PRN":31,"el":4,"az":201,"ss":10,"used":false},{"PRN":
25,"el":3,"az":137,"ss":0,"used":false},{"PRN":11,"el":2,"az":327,"ss":0,"used":false},{"PRN":129,"el":0,"az":0,"ss":0,"used":false}]}
{"class":"TPV","device":"dev/ttyS0","mode":3,"time":"2018-10-07T22:16:38.000Z","ept":0.005,"lat":40.421700000,"lon":-86.929983333,"alt":183.600,"epx":9.198,"epy":15.222,"epv":16.790,"track":236.8200,"speed":0.180,"climb":0.000,"eps":30.4
4,"epc":33.58}
{"class":"TPV","device":"dev/ttyS0","mode":3,"time":"2018-10-07T22:16:39.000Z","ept":0.005,"lat":40.421698333,"lon":-86.929985000,"alt":183.600,"epx":9.198,"epy":15.222,"epv":16.790,"track":237.1000,"speed":0.195,"climb":0.000,"eps":30.4
4,"epc":33.58}
{"class":"TPV","device":"dev/ttyS0","mode":3,"time":"2018-10-07T22:16:40.000Z","ept":0.005,"lat":40.421698333,"lon":-86.929986667,"alt":183.600,"epx":9.198,"epy":15.222,"epv":16.790,"track":259.0600,"speed":0.195,"climb":0.000,"eps":30.4
4,"epc":33.58}
{"class":"TPV","device":"dev/ttyS0","mode":3,"time":"2018-10-07T22:16:41.000Z","ept":0.005,"lat":40.421698333,"lon":-86.929988333,"alt":183.600,"epx":9.198,"epy":15.222,"epv":16.790,"track":249.8100,"speed":0.216,"climb":0.000,"eps":30.4
4,"epc":33.58}
{"class":"TPV","device":"dev/ttyS0","mode":3,"time":"2018-10-07T22:16:42.000Z","ept":0.005,"lat":40.421696667,"lon":-86.929991667,"alt":183.600,"epx":9.198,"epy":15.222,"epv":16.790,"track":253.8500,"speed":0.237,"climb":0.000,"eps":30.4
4,"epc":33.58}
{"class":"SKY","device":"dev/ttyS0","xdop":0.61,"ydop":1.01,"vdop":0.73,"tdop":1.15,"hdop":0.87,"gdop":2.32,"pdop":1.13,"satellites":[{"PRN":10,"el":74,"az":345,"ss":14,"used":true},{"PRN":20,"el":68,"az":103,"ss":15,"used":true},{"PRN":
32,"el":53,"az":267,"ss":26,"used":true},{"PRN":24,"el":38,"az":55,"ss":17,"used":true},{"PRN":14,"el":33,"az":253,"ss":12,"used":true},{"PRN":21,"el":29,"az":179,"ss":14,"used":true},{"PRN":18,"el":12,"az":321,"ss":25,"used":true},{"PRN
":15,"el":12,"az":67,"ss":15,"used":true},{"PRN":12,"el":9,"az":101,"ss":12,"used":true},{"PRN":8,"el":8,"az":289,"ss":13,"used":true},{"PRN":27,"el":8,"az":259,"ss":0,"used":false},{"PRN":31,"el":4,"az":201,"ss":13,"used":false},{"PRN":
25,"el":3,"az":137,"ss":0,"used":false},{"PRN":11,"el":2,"az":327,"ss":0,"used":false},{"PRN":127,"el":0,"az":0,"ss":0,"used":false}]}
{"class":"TPV","device":"dev/ttyS0","mode":3,"time":"2018-10-07T22:16:43.000Z","ept":0.005,"lat":40.421696667,"lon":-86.929993333,"alt":183.600,"epx":9.198,"epy":15.222,"epv":16.790,"track":262.1400,"speed":0.231,"climb":0.000,"eps":30.4
4,"epc":33.58}
{"class":"TPV","device":"dev/ttyS0","mode":3,"time":"2018-10-07T22:16:44.000Z","ept":0.005,"lat":40.421696667,"lon":-86.929996667,"alt":183.600,"epx":9.198,"epy":15.222,"epv":16.790,"track":272.9600,"speed":0.237,"climb":0.000,"eps":30.4
4,"epc":33.58}
{"class":"TPV","device":"dev/ttyS0","mode":3,"time":"2018-10-07T22:16:45.000Z","ept":0.005,"lat":40.421696667,"lon":-86.929998333,"alt":183.600,"epx":9.198,"epy":15.222,"epv":16.790,"track":269.3200,"speed":0.237,"climb":0.000,"eps":30.4
4,"epc":33.58}
{"class":"TPV","device":"dev/ttyS0","mode":3,"time":"2018-10-07T22:16:46.000Z","ept":0.005,"lat":40.421696667,"lon":-86.930001667,"alt":183.600,"epx":9.198,"epy":15.222,"epv":16.790,"track":270.7300,"speed":0.252,"climb":0.000,"eps":30.4
4,"epc":33.58}
{"class":"TPV","device":"dev/ttyS0","mode":3,"time":"2018-10-07T22:16:47.000Z","ept":0.005,"lat":40.421696667,"lon":-86.930005000,"alt":183.600,"epx":9.198,"epy":15.222,"epv":16.790,"track":285.2900,"speed":0.252,"climb":0.000,"eps":30.4
4,"epc":33.58}
{"class":"SKY","device":"dev/ttyS0","xdop":0.61,"ydop":1.01,"vdop":0.73,"tdop":1.15,"hdop":0.87,"gdop":2.32,"pdop":1.13,"satellites":[{"PRN":10,"el":74,"az":345,"ss":16,"used":true},{"PRN":20,"el":68,"az":103,"ss":17,"used":true},{"PRN":
32,"el":53,"az":267,"ss":26,"used":true},{"PRN":24,"el":38,"az":55,"ss":17,"used":true},{"PRN":14,"el":33,"az":253,"ss":13,"used":true},{"PRN":21,"el":29,"az":179,"ss":10,"used":true},{"PRN":18,"el":12,"az":321,"ss":26,"used":true},{"PRN
":15,"el":12,"az":67,"ss":16,"used":true},{"PRN":12,"el":9,"az":101,"ss":13,"used":true},{"PRN":8,"el":8,"az":289,"ss":14,"used":true},{"PRN":27,"el":8,"az":259,"ss":0,"used":false},{"PRN":31,"el":4,"az":201,"ss":0,"used":false},{"PRN":2
5,"el":3,"az":137,"ss":0,"used":false},{"PRN":11,"el":2,"az":327,"ss":0,"used":false},{"PRN":131,"el":0,"az":0,"ss":0,"used":false}]}
{"class":"TPV","device":"dev/ttyS0","mode":3,"time":"2018-10-07T22:16:48.000Z","ept":0.005,"lat":40.421698333,"lon":-86.930008333,"alt":183.600,"epx":9.198,"epy":15.222,"epv":16.790,"track":302.7900,"speed":0.216,"climb":0.000,"eps":30.4
4,"epc":33.58}
{"class":"TPV","device":"dev/ttyS0","mode":3,"time":"2018-10-07T22:16:49.000Z","ept":0.005,"lat":40.421698333,"lon":-86.930010000,"alt":183.600,"epx":9.198,"epy":15.222,"epv":16.790,"track":315.9300,"speed":0.195,"climb":0.000,"eps":30.4
4,"epc":33.58}
{"class":"TPV","device":"dev/ttyS0","mode":3,"time":"2018-10-07T22:16:50.000Z","ept":0.005,"lat":40.421700000,"lon":-86.930011667,"alt":183.600,"epx":9.198,"epy":15.222,"epv":16.790,"track":325.2400,"speed":0.175,"climb":0.000,"eps":30.4
4,"epc":33.58}
